City_ID,City,Cloudiness,Country,Date,Humidity,Lat,Lng,Max Temp,Wind Speed
0,kruisfontein,28,ZA,1610233413,82,-34.0033,24.7314,20.56,1.79
1,bredasdorp,47,ZA,1610233416,88,-34.5322,20.0403,18.0,2.57
2,dolinsk,75,RU,1610233417,78,47.35,142.8,-15.0,5.0
3,kanor,3,IN,1610233418,88,24.4333,74.2667,16.42,3.15
4,maridi,35,SS,1610233419,48,4.9158,29.4742,23.05,2.03
5,kelso,1,US,1610233420,76,46.1468,-122.9084,7.0,3.09
6,ushuaia,75,AR,1610233364,54,-54.8,-68.3,12.0,3.09
7,hofn,0,IS,1610233422,82,64.2539,-15.2082,-5.66,5.34
8,isangel,75,VU,1610233423,79,-19.55,169.2667,30.0,1.54
9,puerto ayora,0,EC,1610233424,69,-0.7393,-90.3518,27.0,96.2
10,georgetown,20,MY,1610233316,78,5.4112,100.3354,26.0,2.06
11,hobart,20,AU,1610233206,59,-42.8794,147.3294,22.22,2.57
12,evensk,63,RU,1610233427,81,61.95,159.2333,-18.19,4.74
13,kiruna,90,SE,1610233428,86,67.8557,20.2251,-8.0,2.57
14,san patricio,90,US,1610233429,71,28.017,-97.5169,14.0,7.2
15,rikitea,100,PF,1610233430,75,-23.1203,-134.9692,25.88,5.86
16,kahului,40,US,1610233431,61,20.8947,-156.47,27.0,4.12
17,chenzhou,95,CN,1610233432,83,25.8,113.0333,0.97,0.7
18,yellowknife,20,CA,1610233433,92,62.456,-114.3525,-11.0,2.57
19,abu dhabi,0,AE,1610233204,41,24.4667,54.3667,15.0,1.54
20,katsuura,20,JP,1610233436,60,35.1333,140.3,1.0,2.57
21,margate,5,GB,1610233436,87,51.3813,1.3862,2.22,0.89
22,vardo,100,NO,1610233438,94,70.3705,31.1107,-6.15,6.98
23,port alfred,15,ZA,1610233439,89,-33.5906,26.891,21.11,2.68
24,saint-philippe,0,RE,1610233440,78,-21.3585,55.7679,23.0,2.06
25,new norfolk,12,AU,1610233441,37,-42.7826,147.0587,22.22,0.89
26,mar del plata,0,AR,1610233444,77,-38.0023,-57.5575,20.56,1.54
27,bluff,100,NZ,1610233445,77,-46.6,168.3333,16.67,5.81
28,butaritari,74,KI,1610233446,80,3.0707,172.7902,27.68,8.89
29,avarua,75,CK,1610233447,65,-21.2078,-159.775,29.0,2.57
30,huarmey,45,PE,1610233448,77,-10.0681,-78.1522,22.62,4.63
31,kaitangata,44,NZ,1610233448,52,-46.2817,169.8464,20.0,3.13
32,monte alegre,100,BR,1610233255,77,-2.0078,-54.0692,25.54,0.81
33,hermanus,79,ZA,1610233451,92,-34.4187,19.2345,18.33,5.42
34,tuktoyaktuk,75,CA,1610233452,85,69.4541,-133.0374,-17.0,8.23
35,punta arenas,75,CL,1610233416,71,-53.15,-70.9167,10.0,4.63
36,airai,100,TL,1610233454,100,-8.9266,125.4092,18.88,0.45
37,atuona,97,PF,1610233457,78,-9.8,-139.0333,25.51,7.88
38,vostok,100,RU,1610233458,87,46.4856,135.8833,-27.71,1.62
39,norman wells,20,CA,1610233459,85,65.282,-126.8329,-15.0,3.09
40,vaini,75,TO,1610233460,89,-21.2,-175.2,28.0,4.12
41,jamestown,1,US,1610233313,74,42.097,-79.2353,-1.11,4.12
42,busselton,94,AU,1610233462,80,-33.65,115.3333,20.0,2.24
43,hualmay,53,PE,1610233312,76,-11.0964,-77.6139,22.62,5.06
44,severo-kurilsk,92,RU,1610233464,88,50.6789,156.125,-6.03,4.9
45,faanui,1,PF,1610233466,70,-16.4833,-151.75,27.41,5.55
46,albany,100,US,1610233467,56,42.6001,-73.9662,-1.67,3.23
47,dikson,100,RU,1610233468,87,73.5069,80.5464,-20.97,4.51
48,san jose de miranda,92,CO,1610233469,79,6.6587,-72.7334,15.47,0.89
49,mataura,88,NZ,1610233337,77,-46.1927,168.8643,16.67,5.81
50,padang,40,ID,1610233471,88,-0.9492,100.3543,24.0,2.06
51,portland,1,US,1610233284,61,45.5234,-122.6762,9.44,2.57
52,barrow,90,US,1610233474,78,71.2906,-156.7887,-14.0,3.09
53,krasnaya polyana,99,RU,1610233476,96,56.242,51.1442,-10.46,4.2
54,tucuman,20,AR,1610233354,61,-26.8241,-65.2226,28.0,0.72
55,nanae,75,JP,1610233478,85,41.8833,140.6833,-14.0,2.06
56,gull lake,1,CA,1610233479,80,50.1001,-108.4847,-4.0,7.72
57,gayeri,3,BF,1610233480,16,12.6497,0.4931,27.16,4.51
58,pevek,47,RU,1610233481,88,69.7008,170.3133,-30.83,1.31
59,marsh harbour,29,BS,1610233206,65,26.5412,-77.0636,18.34,6.64
60,labuhan,100,ID,1610233483,85,-6.8844,112.2051,25.09,2.23
61,auki,100,SB,1610233484,69,-8.7676,160.7034,29.24,1.4
62,mayo,1,US,1610233485,49,38.8876,-76.5119,6.0,4.12
63,santiago,40,CL,1610232669,38,-33.4569,-70.6483,25.0,5.14
64,verkhnyaya inta,0,RU,1610233488,89,65.9811,60.3094,-19.78,2.97
65,razole,86,IN,1610233489,96,16.4833,81.8333,19.03,1.95
66,chuy,98,UY,1610233491,68,-33.6971,-53.4616,19.58,4.65
67,acapulco,75,MX,1610233491,74,16.8634,-99.8901,28.0,2.06
68,tautira,75,PF,1610233315,66,-17.7333,-149.15,30.0,5.66
69,ribeira grande,73,PT,1610233493,66,38.5167,-28.7,14.67,6.26
70,buritis,95,BR,1610233494,80,-15.6178,-46.4233,23.04,0.88
71,gorontalo,9,ID,1610233495,88,0.5412,123.0595,25.21,1.43
72,vila franca do campo,40,PT,1610233496,58,37.7167,-25.4333,12.0,2.57
73,kavieng,99,PG,1610233497,72,-2.5744,150.7967,29.08,4.23
74,lieksa,67,FI,1610233498,93,63.3167,30.0167,-16.61,2.66
75,sulphur springs,1,US,1610233499,46,33.1385,-95.6011,8.0,2.57
76,praia da vitoria,20,PT,1610233500,76,38.7333,-27.0667,13.89,2.98
77,dunedin,39,NZ,1610233501,55,-45.8742,170.5036,17.06,2.51
78,ust-omchug,100,RU,1610233502,84,61.15,149.6333,-27.85,2.88
79,jardim,24,BR,1610233503,57,-21.4803,-56.1381,27.93,0.67
80,willowmore,1,ZA,1610233505,61,-33.2926,23.4895,17.04,2.76
81,nanortalik,100,GL,1610233506,91,60.1432,-45.2371,-1.33,3.42
82,bagdarin,100,RU,1610233507,83,54.4333,113.6,-21.8,2.05
83,izumo,75,JP,1610233259,93,35.3667,132.7667,-1.0,5.66
84,kannauj,6,IN,1610233509,75,27.0546,79.922,16.06,2.7
85,tiksi,100,RU,1610233510,88,71.6872,128.8694,-28.52,3.01
86,mbulu,100,TZ,1610233511,95,-3.85,35.5333,14.82,5.22
87,college,90,US,1610233511,73,64.8569,-147.8028,-9.0,2.57
88,lao cai,86,VN,1610233512,53,22.4833,103.95,7.99,0.86
89,muros,100,ES,1610233513,73,42.7762,-9.0603,7.78,3.13
90,kargala,100,RU,1610233514,86,56.6208,83.9607,-17.22,2.24
91,namangan,0,UZ,1610233515,79,40.9983,71.6726,-7.0,2.06
92,samarai,100,PG,1610233516,74,-10.6167,150.6667,29.5,4.73
93,fortuna,1,US,1610233517,58,40.5982,-124.1573,15.56,1.37
94,narsaq,75,GL,1610233518,42,60.9167,-46.05,5.0,9.77
95,thaba-tseka,81,LS,1610233519,74,-29.522,28.6084,14.75,1.4
96,cherskiy,96,RU,1610233520,86,68.75,161.3,-32.77,1.55
97,tuy hoa,86,VN,1610233521,86,13.0833,109.3,21.3,5.89
98,srednekolymsk,83,RU,1610233523,84,67.45,153.6833,-33.8,2.14
99,waynesville,0,US,1610233525,86,35.4887,-82.9887,-3.89,1.7
100,maniitsoq,99,GL,1610233526,88,65.4167,-52.9,-4.25,5.07
101,houma,1,US,1610233527,49,29.5958,-90.7195,10.0,3.6
102,sabang,93,ID,1610233528,75,5.8933,95.3214,27.22,4.6
103,hilo,75,US,1610233529,57,19.7297,-155.09,27.0,2.06
104,provideniya,1,RU,1610233530,82,64.3833,-173.3,-21.84,3.14
105,port-cartier,18,CA,1610233531,50,50.0334,-66.8654,-2.0,4.63
106,souillac,40,MU,1610233531,89,-20.5167,57.5167,26.0,2.06
107,bethel,90,US,1610233534,43,41.3712,-73.414,0.0,4.63
108,ossora,100,RU,1610233535,83,59.2353,163.0719,-15.6,3.75
109,shelburne,1,CA,1610233536,74,44.0787,-80.2041,-1.0,2.57
110,cidreira,0,BR,1610233537,82,-30.1811,-50.2056,25.33,7.14
111,puerto del rosario,20,ES,1610233538,58,28.5004,-13.8627,15.0,5.14
112,kapaa,75,US,1610233539,69,22.0752,-159.319,26.0,4.12
113,njombe,100,TZ,1610233540,95,-9.3333,34.7667,12.92,1.65
114,isla vista,1,US,1610233541,45,34.4133,-119.861,21.67,2.57
115,shipunovo,100,RU,1610233542,86,52.1582,82.2173,-13.06,9.11
116,nome,1,US,1610233543,71,64.5011,-165.4064,-22.0,5.14
117,thompson,20,CA,1610233342,92,55.7435,-97.8558,-14.0,1.54
118,laguna,1,US,1610233545,58,38.421,-121.4238,13.33,4.63
119,faya,0,SA,1610233547,57,18.3851,42.4509,10.0,0.53
120,bandar,100,ID,1610233548,92,2.05,99.75,22.3,1.15
121,saskylakh,100,RU,1610233550,85,71.9167,114.0833,-32.45,3.79
122,pavlodar,0,KZ,1610233551,72,52.3,76.95,-13.0,6.0
123,ulladulla,0,AU,1610233552,64,-35.35,150.4667,23.33,3.6
124,codrington,3,AU,1610233553,57,-38.2667,141.9667,21.24,3.29
125,tiarei,75,PF,1610233554,65,-17.5333,-149.3333,30.0,5.14
126,mount hagen,100,PG,1610233556,83,-5.8581,144.2274,18.88,0.95
127,beringovskiy,100,RU,1610233557,88,63.05,179.3167,-25.9,5.19
128,ponta delgada,40,PT,1610233477,58,37.7333,-25.6667,12.0,2.57
129,totma,93,RU,1610233559,95,59.9747,42.7642,-14.19,2.39
130,assiniboia,0,CA,1610233560,73,49.6334,-105.9845,-6.0,1.03
131,egvekinot,60,RU,1610233317,85,66.3167,-179.1667,-29.05,4.2
132,lebu,0,CL,1610233562,71,-37.6167,-73.65,15.1,3.15
133,tabou,7,CI,1610233563,85,4.423,-7.3528,25.95,3.67
134,hithadhoo,100,MV,1610233474,75,-0.6,73.0833,27.11,5.01
135,campos gerais,100,BR,1610233565,90,-21.235,-45.7586,21.83,4.78
136,jalu,0,LY,1610233567,39,29.0331,21.5482,17.98,3.38
137,grass valley,1,US,1610233568,46,39.2191,-121.0611,11.11,1.16
138,belmonte,20,BR,1610233569,83,-15.8631,-38.8828,26.0,5.14
139,ust-nera,69,RU,1610233306,73,64.5667,143.2,-36.91,0.66
140,lagoa,94,PT,1610233571,60,39.05,-27.9833,13.71,3.44
141,ponta do sol,44,PT,1610233572,72,32.6667,-17.1,11.67,1.79
142,marang,40,MY,1610233575,83,5.2056,103.2059,26.0,3.09
143,stokmarknes,99,NO,1610233576,57,68.5646,14.9108,-1.67,4.02
144,mazagao,40,BR,1610233578,83,-0.115,-51.2894,28.0,3.6
145,muscat,0,OM,1610233478,54,23.6139,58.5922,13.0,1.54
146,nishihara,75,JP,1610233579,62,26.1842,127.7558,13.0,2.57
147,port augusta,0,AU,1610233580,30,-32.5,137.7667,31.11,3.09
148,khatanga,67,RU,1610233582,85,71.9667,102.5,-35.07,0.94
149,nouadhibou,0,MR,1610233450,63,20.931,-17.0347,18.0,7.72
150,sao joao da barra,38,BR,1610233584,89,-21.6403,-41.0511,25.24,5.78
151,zinder,0,NE,1610233585,21,13.8072,8.9881,22.38,4.63
152,fare,36,PF,1610233587,73,-16.7,-151.0167,27.21,5.46
153,cape town,75,ZA,1610233588,77,-33.9258,18.4232,20.0,2.57
154,saint marys,90,US,1610233589,87,30.7305,-81.5465,6.11,5.66
155,mehamn,29,NO,1610233589,93,71.0357,27.8492,-8.71,6.88
156,chokurdakh,100,RU,1610233591,86,70.6333,147.9167,-33.9,0.92
157,zhanaozen,0,KZ,1610233591,86,43.3,52.8,-0.88,6.74
158,saint-paul,0,RE,1610233385,78,-21.0096,55.2707,23.0,2.57
159,anadyr,20,RU,1610233593,68,64.75,177.4833,-33.89,4.0
160,chapais,90,CA,1610233596,92,49.7834,-74.8492,-9.0,2.57
161,east london,8,ZA,1610233430,76,-33.0153,27.9116,23.67,8.0
162,shubarkuduk,99,KZ,1610233598,93,49.1447,56.4872,-5.05,5.33
163,durazno,98,UY,1610233599,31,-33.4131,-56.5006,26.66,2.71
164,bengkulu,100,ID,1610233600,84,-3.8004,102.2655,24.12,2.05
165,buchanan,75,LR,1610233601,94,5.8808,-10.0467,26.0,2.89
166,poum,100,NC,1610233602,79,-20.2333,164.0167,28.16,7.14
167,sovetskaya gavan,16,RU,1610233603,75,48.9723,140.2878,-24.0,4.29
168,kalangala,98,UG,1610233605,74,-0.3089,32.225,22.7,6.47
169,kasama,100,ZM,1610233606,97,-10.2129,31.1808,16.37,1.68
170,grand forks,20,US,1610233607,100,47.9417,-97.4337,0.0,5.14
171,yerbogachen,100,RU,1610233608,89,61.2767,108.0108,-24.73,0.52
172,upernavik,59,GL,1610233609,82,72.7868,-56.1549,-11.74,5.3
173,vanderhoof,99,CA,1610233610,95,54.0166,-124.0198,-2.62,2.81
174,pisco,0,PE,1610233611,83,-13.7,-76.2167,22.0,9.77
175,utena,39,LT,1610233612,96,55.5,25.6,-10.74,1.73
176,mukhtolovo,100,RU,1610233613,99,55.4644,43.1953,-3.89,2.75
177,lata,94,PT,1610233614,70,40.1629,-8.3327,6.11,2.24
178,xichang,55,CN,1610233615,77,27.8964,102.2634,2.32,1.13
179,manokwari,100,ID,1610233616,73,-0.8667,134.0833,27.28,0.53
180,gualaceo,75,EC,1610233617,59,-2.9,-78.7833,17.0,1.03
181,kotovo,100,RU,1610233618,94,50.3211,44.8012,1.18,7.32
182,lere,1,NG,1610233465,26,10.387,8.5726,19.13,1.47
183,panaba,100,MX,1610233620,78,21.2833,-88.2667,19.44,2.67
184,torbay,40,CA,1610233519,80,47.6666,-52.7314,1.11,8.23
185,pilot butte,0,CA,1610233623,79,50.4668,-104.4178,-7.78,3.6
186,ilulissat,40,GL,1610233624,53,69.2167,-51.1,-8.0,5.66
187,rorvik,100,NO,1610233625,95,64.8621,11.2373,-2.89,11.15
188,vila velha,75,BR,1610233626,83,-20.3297,-40.2925,26.11,5.66
189,vao,100,NC,1610233627,88,-22.6667,167.4833,25.9,5.94
190,okato,92,NZ,1610233628,77,-39.2,173.8833,18.89,4.92
191,aswan,0,EG,1610233629,30,24.0934,32.907,16.48,3.32
192,shieli,63,KZ,1610233631,68,44.1667,66.75,-7.63,2.65
193,longfeng,0,CN,1610233632,85,46.55,125.1167,-22.3,2.0
194,tocopilla,69,CL,1610233633,63,-22.092,-70.1979,21.81,4.41
195,quang ngai,100,VN,1610233634,91,15.1167,108.8,18.23,2.34
196,xinzhi,95,CN,1610233635,66,36.4989,111.7047,-6.55,3.3
197,bressanone,0,IT,1610233636,86,46.715,11.656,-5.56,1.36
198,port elizabeth,0,ZA,1610233600,88,-33.918,25.5701,21.0,8.23
199,zhigansk,100,RU,1610233639,85,66.7697,123.3711,-32.79,3.05
200,dumraon,68,IN,1610233641,68,25.55,84.15,17.05,3.15
201,hasaki,20,JP,1610233642,79,35.7333,140.8333,-5.0,2.06
202,talnakh,4,RU,1610233643,82,69.4865,88.3972,-31.81,0.8
203,kiomboi,100,TZ,1610233644,95,-4.2667,34.3667,16.1,0.78
204,hambantota,100,LK,1610233645,90,6.1241,81.1185,23.59,3.1
205,ishigaki,75,JP,1610233649,62,24.3448,124.1572,12.0,3.6
206,mahebourg,40,MU,1610233651,89,-20.4081,57.7,26.0,2.06
207,albacete,90,ES,1610233652,100,38.8333,-2.0,-2.0,2.06
208,inongo,20,CD,1610233653,86,-1.95,18.2667,22.89,1.58
209,manicore,100,BR,1610233657,96,-5.8092,-61.3003,24.24,1.61
210,lavrentiya,0,RU,1610233658,85,65.5833,-171.0,-24.79,1.98
211,geraldton,75,AU,1610233659,83,-28.7667,114.6,23.0,6.17
212,bronnoysund,75,NO,1610233660,74,65.4625,12.1997,0.0,9.26
213,colwyn bay,77,GB,1610233661,90,53.2948,-3.7267,2.78,1.79
214,cabo san lucas,1,MX,1610233485,53,22.8909,-109.9124,24.44,5.14
215,ahipara,95,NZ,1610233664,69,-35.1667,173.1667,21.62,3.13
216,delmiro gouveia,97,BR,1610233665,51,-9.3886,-37.9992,28.92,5.1
217,alyangula,88,AU,1610233666,89,-13.8483,136.4192,29.0,1.03
218,bambous virieux,40,MU,1610233667,89,-20.3428,57.7575,26.0,2.06
219,sao filipe,10,CV,1610233668,74,14.8961,-24.4956,22.38,7.67
220,vestmannaeyjar,26,IS,1610233670,86,63.4427,-20.2734,-2.98,0.91
221,tashtyp,100,RU,1610233671,86,52.7939,89.8983,-14.96,1.51
222,biak,56,ID,1610233671,79,-0.9131,122.8766,25.87,1.13
223,lac du bonnet,44,CA,1610233672,96,50.2536,-96.0612,-7.89,2.25
224,talara,40,PE,1610233674,73,-4.5772,-81.2719,25.0,6.69
225,arlit,0,NE,1610233675,20,18.7369,7.3853,22.44,3.42
226,gimli,48,CA,1610233676,93,50.6336,-96.9907,-5.0,1.54
227,todos santos,0,MX,1610233677,66,23.45,-110.2167,21.11,2.68
228,batagay-alyta,100,RU,1610233678,84,67.8006,130.4114,-30.51,1.42
229,axim,37,GH,1610233679,86,4.8699,-2.2405,26.25,3.69
230,tuatapere,98,NZ,1610233680,77,-46.1333,167.6833,16.67,5.81
231,qaanaaq,0,GL,1610233682,77,77.484,-69.3632,-18.65,2.05
232,chunskiy,100,RU,1610233683,93,56.0815,99.6342,-16.56,2.49
233,victoria,93,HK,1610233673,38,22.2855,114.1577,11.67,0.45
234,orito,75,CO,1610233685,100,0.6766,-76.8771,24.0,1.03
235,hamilton,1,US,1610233394,69,39.1834,-84.5333,0.56,1.04
236,arraial do cabo,9,BR,1610233687,92,-22.9661,-42.0278,25.05,4.79
237,petatlan,1,MX,1610233688,66,17.5167,-101.2667,30.0,1.86
238,havre-saint-pierre,75,CA,1610233689,68,50.2334,-63.5986,-3.0,3.6
239,kuytun,100,RU,1610233691,89,54.3419,101.5036,-19.92,1.74
240,grindavik,75,IS,1610233692,100,63.8424,-22.4338,-4.0,1.54
241,sistranda,40,NO,1610233693,80,63.7256,8.834,2.0,7.72
242,perbaungan,40,ID,1610233694,100,3.5679,98.956,24.0,1.03
243,nikolskoye,0,RU,1610233695,78,59.7035,30.7861,-13.33,2.0
244,juneau,90,US,1610233696,56,58.3019,-134.4197,5.0,4.63
245,naze,75,JP,1610233433,71,28.3667,129.4833,10.0,4.12
246,castro,99,BR,1610233698,96,-24.7911,-50.0119,19.36,3.37
247,ancud,90,CL,1610233699,87,-41.8697,-73.8203,14.44,6.17
248,tasiilaq,54,GL,1610233700,45,65.6145,-37.6368,-8.0,2.06
249,faqirwali,0,PK,1610233701,50,29.4663,73.034,10.08,0.95
250,mount gambier,12,AU,1610233703,72,-37.8333,140.7667,19.0,2.57
251,pocone,66,BR,1610233705,64,-16.2567,-56.6228,28.52,2.8
252,corinto,28,GR,1610233707,71,37.9407,22.9573,18.33,1.65
253,saint-pierre,0,RE,1610233708,78,-21.3393,55.4781,23.0,2.06
254,sarkand,0,KZ,1610233710,64,45.41,79.9186,-9.34,2.18
255,husavik,90,IS,1610233711,73,66.0449,-17.3389,-6.0,0.51
256,montague,78,US,1610233712,60,42.5356,-72.5351,0.0,0.89
257,gualeguay,40,AR,1610233472,28,-33.1416,-59.3097,30.31,3.16
258,balad,50,IQ,1610233714,41,34.0164,44.1453,10.87,1.98
259,anloga,20,GH,1610233715,89,5.7947,0.8973,27.0,4.63
260,buala,100,SB,1610233716,72,-8.145,159.5921,29.55,3.02
261,fort nelson,40,CA,1610233717,85,58.8053,-122.7002,-11.0,1.03
262,lincoln,75,US,1610233574,80,40.8,-96.667,-1.11,2.06
263,bilma,0,NE,1610233719,26,18.6853,12.9164,18.97,0.93
264,muzhi,99,RU,1610233720,91,65.3667,64.6667,-22.36,3.09
265,ornskoldsvik,90,SE,1610233721,86,63.2909,18.7153,-2.0,6.69
266,sur,0,OM,1610233722,41,22.5667,59.5289,17.87,5.9
267,yurla,92,RU,1610233724,94,59.3259,54.3223,-17.55,2.4
268,pangnirtung,100,CA,1610233725,77,66.1451,-65.7125,-13.77,0.35
269,chunhuhub,1,MX,1610233726,62,19.55,-88.6833,22.03,1.22
270,chikwawa,100,MW,1610233728,90,-16.0335,34.8009,24.3,0.87
271,zarate,29,AR,1610233729,48,-34.0981,-59.0286,27.78,0.89
272,usinsk,5,RU,1610233732,90,65.9939,57.5281,-23.17,2.78
273,riyadh,0,SA,1610233626,82,24.6877,46.7219,11.0,1.03
274,kodiak,90,US,1610233734,87,57.79,-152.4072,2.0,11.83
275,esperance,100,AU,1610233735,38,-33.8667,121.9,25.0,8.23
276,westerland,75,DE,1610233687,93,54.9079,8.3033,1.0,3.6
277,rantepao,76,ID,1610233738,87,-2.9701,119.8978,20.79,0.75
278,sitka,90,US,1610233740,57,57.0531,-135.33,7.0,13.38
279,nabire,100,ID,1610233741,83,-3.3667,135.4833,25.32,1.44
280,erdenet,99,MN,1610233742,84,49.0333,104.0833,-23.04,2.07
281,hirara,75,JP,1610233743,58,24.8,125.2833,13.0,4.12
282,clinton,75,US,1610233514,75,42.587,-82.9199,2.0,2.57
283,riviere-du-loup,32,CA,1610233498,68,47.8304,-69.5342,-3.0,4.12
284,orativ,24,UA,1610233746,93,49.1889,29.527,-1.44,4.04
285,borgosesia,100,IT,1610233747,70,45.7145,8.2799,0.56,1.62
286,georgiyevka,0,KZ,1610233749,78,43.0369,74.7114,-19.0,2.0
287,paamiut,100,GL,1610233750,97,61.994,-49.6678,0.53,1.37
288,cap-aux-meules,100,CA,1610233751,93,47.3821,-61.8597,0.0,6.17
289,konevo,71,RU,1610233752,89,62.1215,39.3192,-25.17,1.56
290,khasan,8,RU,1610233753,84,42.4308,130.6434,-13.84,5.56
291,vallenar,0,CL,1610233740,35,-28.5708,-70.7581,23.92,2.63
292,tupiza,64,BO,1610233755,46,-21.45,-65.7167,18.23,4.92
293,cockburn town,69,TC,1610233753,73,21.4612,-71.1419,25.99,2.31
294,udachnyy,100,RU,1610233759,83,66.4167,112.4,-33.97,2.84
295,burley,90,US,1610233597,75,42.5357,-113.7928,1.0,2.57
296,nakasongola,72,UG,1610233760,66,1.3089,32.4564,19.87,1.1
297,pitkyaranta,77,RU,1610233763,95,61.5734,31.4792,-16.83,3.28
298,port lincoln,44,AU,1610233764,44,-34.7333,135.8667,25.46,4.87
299,namatanai,99,PG,1610233765,71,-3.6667,152.4333,29.05,3.16
300,shingu,40,JP,1610233766,55,33.7333,135.9833,2.0,8.75
301,trelew,46,AR,1610233700,14,-43.249,-65.3051,27.66,13.57
302,turukhansk,99,RU,1610233768,90,65.8167,87.9833,-23.17,1.72
303,okha,76,RU,1610233769,89,53.5739,142.9478,-27.86,4.15
304,constitucion,49,CL,1610233770,70,-35.3333,-72.4167,14.55,6.25
305,erzin,0,TR,1610233771,54,36.9559,36.2,12.78,2.71
306,rayong,89,TH,1610233772,71,12.8333,101.4333,21.67,3.17
307,santa isabel do rio negro,72,BR,1610233773,96,-0.4139,-65.0192,23.14,0.96
308,high level,20,CA,1610233774,100,58.5169,-117.136,-9.0,1.54
309,eyl,4,SO,1610233775,73,7.9803,49.8164,21.93,8.4
310,longyearbyen,20,SJ,1610233776,69,78.2186,15.6401,-1.0,8.23
311,hanzhong,100,CN,1610233777,68,33.0728,107.0303,-0.88,0.84
312,moose factory,90,CA,1610233778,93,51.2585,-80.6094,-5.0,2.57
313,vilyuysk,100,RU,1610233779,86,63.7553,121.6247,-31.05,2.68
314,iskateley,0,RU,1610233780,83,67.6803,53.1512,-22.3,2.64
315,waipawa,40,NZ,1610233781,73,-41.4122,175.5153,21.0,8.75
316,orlik,37,RU,1610233782,74,52.5178,99.825,-25.39,1.48
317,ximei,0,CN,1610233783,49,24.9639,118.3794,7.0,3.0
318,tazovskiy,17,RU,1610233784,86,67.4667,78.7,-30.87,4.14
319,renqiu,0,CN,1610233784,75,38.6989,116.0936,-8.28,1.76
320,bereznik,98,RU,1610233786,91,62.8551,42.7072,-21.96,0.98
321,uppsala,90,SE,1610233786,100,60.0,17.75,-1.67,4.12
322,meulaboh,99,ID,1610233787,87,4.1363,96.1285,23.61,2.02
323,chifeng,9,CN,1610233788,82,42.2683,118.9636,-19.68,4.46
324,port hardy,90,CA,1610233790,87,50.6996,-127.4199,6.0,13.89
325,micheweni,100,TZ,1610233790,85,-4.9667,39.8333,25.88,6.01
326,klaksvik,40,FO,1610233792,60,62.2266,-6.589,1.0,7.72
327,leningradskiy,48,RU,1610233794,85,69.3833,178.4167,-29.62,2.24
328,praia,40,CV,1610233794,64,14.9215,-23.5087,22.0,10.8
329,nargana,99,PA,1610233795,80,9.4428,-78.5906,26.75,2.83
330,coihaique,90,CL,1610233796,81,-45.5752,-72.0662,8.0,1.54
331,noshiro,75,JP,1610233797,86,40.2039,140.0242,-4.0,7.72
332,aykhal,99,RU,1610233798,83,66.0,111.5,-33.3,3.22
333,nouakchott,0,MR,1610233799,37,18.0858,-15.9785,20.0,6.69
334,medicine hat,20,CA,1610233755,69,50.0501,-110.6683,1.0,8.23
335,macamic,90,CA,1610233801,92,48.7502,-78.9996,-9.0,1.54
336,quelimane,100,MZ,1610233802,91,-17.8786,36.8883,25.1,0.22
337,carnarvon,62,AU,1610233804,74,-24.8667,113.6333,28.0,8.75
338,aravete,20,EE,1610233805,86,59.1403,25.7485,-5.0,1.54
339,los llanos de aridane,20,ES,1610233806,59,28.6585,-17.9182,16.0,6.69
340,bubaque,1,GW,1610233808,71,11.2833,-15.8333,27.43,4.92
341,misratah,0,LY,1610233809,35,32.3754,15.0925,22.14,7.99
342,coquimbo,20,CL,1610233810,72,-29.9533,-71.3436,16.0,4.12
343,batemans bay,8,AU,1610233811,56,-35.7167,150.1833,25.0,2.04
344,vuktyl,0,RU,1610233812,90,63.8567,57.3094,-20.22,1.49
345,clyde river,90,CA,1610233679,78,70.4692,-68.5914,-16.0,5.66
346,talitsy,100,RU,1610233814,97,56.5289,42.3344,-8.72,3.32
347,ostrovnoy,87,RU,1610233816,91,68.0531,39.5131,-14.69,4.51
348,broome,1,US,1610233817,63,42.2506,-75.833,-1.67,6.69
349,zavety ilicha,4,RU,1610233818,72,49.0294,140.2494,-25.14,3.16
350,bilibino,14,RU,1610233819,83,68.0546,166.4372,-32.31,0.4
351,guerrero negro,0,MX,1610233820,58,27.9769,-114.0611,18.76,7.99
352,oktyabrskoye,33,RU,1610233821,86,43.0645,44.7417,-1.0,4.0
353,nemuro,41,JP,1610233822,89,43.3236,145.575,-7.93,5.17
354,odweyne,2,SO,1610233823,36,9.4092,45.064,17.88,7.36
355,pangai,37,TO,1610233824,83,-19.8,-174.35,26.84,6.68
356,lakes entrance,87,AU,1610233825,63,-37.8811,147.981,25.56,0.91
357,mapiripan,43,CO,1610233826,79,2.8892,-72.1256,25.22,1.55
358,pochutla,20,MX,1610233828,65,15.7432,-96.4661,27.22,1.85
359,ransang,49,PH,1610233829,81,8.9603,117.5828,25.97,3.5
360,port shepstone,67,ZA,1610233831,80,-30.7414,30.455,25.03,0.95
361,kailua,20,US,1610233832,65,21.4022,-157.7394,27.0,3.09
362,tura,92,IN,1610233833,57,25.5198,90.2201,15.49,1.06
363,gatehouse of fleet,100,GB,1610233834,95,54.882,-4.1843,3.33,0.45
364,alenquer,20,BR,1610233836,89,-1.9417,-54.7383,26.0,2.06
365,rabaul,100,PG,1610233837,72,-4.1967,152.1721,27.99,0.48
366,prichard,1,US,1610233725,52,30.7388,-88.0789,6.67,5.14
367,rio grande,54,BR,1610233839,82,-32.035,-52.0986,22.47,6.49
368,dodge city,90,US,1610233752,75,37.7528,-100.0171,2.22,2.06
369,mount isa,0,AU,1610233841,58,-20.7333,139.5,29.0,5.66
370,la asuncion,20,VE,1610233842,84,11.0333,-63.8628,25.45,6.33
371,dicabisagan,100,PH,1610233843,83,17.0818,122.4157,21.0,5.9
372,te anau,100,NZ,1610233596,86,-45.4167,167.7167,12.05,2.24
373,kununurra,0,AU,1610233846,94,-15.7667,128.7333,29.0,2.06
374,luba,20,GQ,1610233847,100,3.4568,8.5547,26.0,2.57
375,dabakala,19,CI,1610233848,35,8.3667,-4.4333,28.14,1.46
376,parabel,89,RU,1610233850,92,58.6978,81.4825,-21.71,1.95
377,comodoro rivadavia,40,AR,1610233701,23,-45.8667,-67.5,24.0,11.32
378,kayes,0,ML,1610233852,16,14.0,-11.0,27.15,4.03
379,peleduy,100,RU,1610233853,88,59.6289,112.7406,-21.78,3.34
380,novikovo,87,RU,1610233854,96,51.1537,37.8879,-2.52,5.14
381,walvis bay,100,NA,1610233855,77,-22.9575,14.5053,20.0,3.09
382,akyab,5,MM,1610233856,76,20.15,92.9,19.72,2.59
383,bertogne,93,BE,1610233857,66,50.0836,5.6669,-0.56,1.94
384,vanavara,100,RU,1610233858,90,60.34,102.2797,-22.88,2.99
385,matagami,90,CA,1610233859,100,49.7502,-77.6328,-6.0,3.6
386,priyutovo,100,RU,1610233860,98,53.9,53.9333,-5.39,7.0
387,deputatskiy,100,RU,1610233861,88,69.3,139.9,-29.66,1.18
388,bethanien,39,NA,1610233862,39,-26.502,17.1583,22.85,4.87
389,soe,100,ID,1610233863,94,-9.8607,124.284,21.81,1.2
390,lompoc,1,US,1610233649,42,34.6391,-120.4579,19.0,5.66
391,omsukchan,97,RU,1610233865,83,62.5333,155.8,-31.78,1.9
392,bridlington,81,GB,1610233866,88,54.0831,-0.1919,1.11,2.68
393,bandarbeyla,25,SO,1610233867,73,9.4942,50.8122,22.48,9.84
394,nanning,90,CN,1610233869,49,22.8167,108.3167,7.0,4.0
395,pasighat,83,IN,1610233870,48,28.0667,95.3333,17.22,0.62
396,aklavik,20,CA,1610233871,77,68.2191,-135.0107,-22.0,2.06
397,tongren,73,CN,1610233872,77,27.7172,109.1853,1.29,0.94
398,medvedka,91,RU,1610233873,95,61.1629,46.387,-12.82,2.64
399,yulara,0,AU,1610233876,21,-25.2406,130.9889,27.0,4.12
400,kaputa,99,ZM,1610233877,86,-8.4689,29.6619,19.1,1.48
401,khani,0,GE,1610233878,56,41.9563,42.9566,5.0,3.6
402,saint george,1,US,1610233879,30,37.1041,-113.5841,11.67,8.23
403,placido de castro,36,BR,1610233880,65,-10.3353,-67.1856,28.01,0.88
404,igunga,100,TZ,1610233881,83,-4.2833,33.8833,19.12,2.07
405,marawi,67,PH,1610233882,91,7.9986,124.2928,23.89,2.68
406,goure,0,NE,1610233883,22,13.9835,10.2704,21.59,3.56
407,san quintin,0,MX,1610233885,59,30.4833,-115.95,17.6,4.66
408,port blair,16,IN,1610233886,81,11.6667,92.75,26.42,4.95
409,sola,100,VU,1610233887,72,-13.8833,167.55,28.24,2.94
410,kargasok,91,RU,1610233888,92,59.0556,80.8572,-21.9,1.7
411,zhangjiakou,0,CN,1610233889,81,40.81,114.8794,-15.65,3.29
412,muroran,75,JP,1610233890,85,42.3172,140.9881,-14.0,2.06
413,eydhafushi,100,MV,1610233891,73,5.1033,73.0708,27.5,2.55
414,ewa beach,1,US,1610233892,57,21.3156,-158.0072,27.0,4.12
415,plouzane,0,FR,1610233893,75,48.3833,-4.6167,2.0,5.14
416,oranjemund,0,NA,1610233894,85,-28.55,16.4333,17.0,5.89
417,buluang,100,PH,1610233895,90,13.3068,123.3425,22.98,5.01
418,karratha,43,AU,1610233896,37,-20.7377,116.8463,33.95,5.37
419,petrovice u karvine,60,CZ,1610233897,95,49.8959,18.5478,-0.56,1.46
420,palmer,75,US,1610233898,51,42.1584,-72.3287,1.11,4.63
421,chicama,17,PE,1610233899,68,-7.8447,-79.1469,23.33,3.8
422,bafata,7,GW,1610233900,31,12.1667,-14.75,25.11,1.26
423,fukuma,75,JP,1610233902,60,33.7667,130.4667,1.0,4.63
424,rush,75,IE,1610233903,87,53.5223,-6.0931,2.78,4.12
425,touros,0,BR,1610233904,74,-5.1989,-35.4608,27.0,5.14
426,korhogo,52,CI,1610233905,38,9.45,-5.6333,28.14,2.13
427,pasni,0,PK,1610233906,35,25.2631,63.471,15.12,9.12
428,mattru,79,SL,1610233907,96,7.6244,-11.8332,24.01,1.12
429,mahesana,0,IN,1610233908,94,23.6,72.4,18.0,2.57
430,tomatlan,23,MX,1610233909,54,19.9333,-105.25,27.2,3.69
431,la ronge,8,CA,1610233912,79,55.1001,-105.2842,-4.0,1.54
432,araouane,0,ML,1610233913,18,18.9048,-3.5265,23.74,2.1
433,vilcun,0,CL,1610233914,48,-38.65,-72.2333,18.0,5.66
434,north platte,90,US,1610233733,64,41.1239,-100.7654,2.0,3.09
435,atherton,90,GB,1610233916,83,53.5237,-2.4935,1.11,0.45
436,porto torres,40,IT,1610233917,76,40.835,8.3972,12.0,6.69
437,kismayo,3,SO,1610233918,80,-0.3582,42.5454,24.83,8.44
438,celestun,98,MX,1610233919,65,20.8667,-90.4,20.54,5.12
439,polysayevo,100,RU,1610233921,91,54.6012,86.2459,-15.49,4.79
440,tygda,31,RU,1610233922,84,53.1167,126.3333,-21.13,3.83
441,marzuq,0,YE,1610233923,44,14.4,46.4667,11.28,1.61
442,marsa matruh,0,EG,1610233924,87,31.3525,27.2453,12.0,2.79
443,sorata,100,BO,1610233925,83,-15.7667,-68.6333,8.83,2.33
444,sao felix do xingu,78,BR,1610233768,75,-6.6447,-51.995,26.03,1.06
445,snasa,100,NO,1610233926,92,64.2457,12.3778,-9.58,2.11
446,uruzgan,0,AF,1610233927,57,32.8333,66.0,-1.75,3.48
447,half moon bay,1,US,1610233928,71,37.4636,-122.4286,16.11,5.14
448,ciudad guayana,93,VE,1610233929,98,8.3533,-62.6528,22.78,2.4
449,reserva,100,BR,1610233930,100,-24.6503,-50.8506,19.76,1.21
450,lazaro cardenas,1,MX,1610233931,67,17.9583,-102.2,26.58,3.86
451,dingle,100,PH,1610233932,91,10.9995,122.6711,23.86,5.56
452,bonavista,100,CA,1610233933,100,48.6499,-53.1147,0.56,3.09
453,eisenach,91,DE,1610233934,83,50.9833,10.3167,0.0,0.94
454,ibateguara,0,BR,1610233935,83,-8.9725,-35.9394,25.0,3.6
455,leshan,92,CN,1610233936,85,29.5623,103.7639,2.96,0.74
456,pandan,100,PH,1610233937,87,14.0453,124.1694,24.13,11.37
457,san cristobal,40,VE,1610233938,65,7.7669,-72.225,27.0,2.06
458,wick,75,GB,1610233939,75,58.4333,-3.0833,2.0,3.09
459,russell,90,US,1610233940,65,32.3502,-85.1999,4.0,4.12
460,haines junction,100,CA,1610233941,93,60.7522,-137.5108,-7.0,0.51
461,roma,1,US,1610233850,63,43.2128,-75.4557,-2.78,3.6
462,santo anastacio,0,BR,1610233943,67,-21.8383,-51.6103,27.0,2.65
463,ballina,90,AU,1610233944,68,-28.8667,153.5667,25.56,3.09
464,pilar,0,BR,1610233946,83,-9.5972,-35.9567,25.0,3.6
465,pacific grove,1,US,1610233832,47,36.6177,-121.9166,16.67,2.57
466,san fernando,20,PH,1610233948,73,15.0286,120.6898,22.0,2.06
467,bowen,90,AU,1610233949,94,-20.0167,148.2333,23.0,2.57
468,korla,0,CN,1610233950,89,41.7597,86.1469,-11.55,0.38
469,nurota,0,UZ,1610233951,73,40.5614,65.6886,-7.0,5.14
470,mamou,82,GN,1610233952,49,10.5,-12.0,22.93,1.63
471,sao jose da coroa grande,87,BR,1610233953,77,-8.8978,-35.1478,25.93,5.44
472,tual,99,ID,1610233749,78,-5.6667,132.75,28.08,6.18
473,tacuarembo,65,UY,1610233826,36,-31.7333,-55.9833,26.54,1.93
474,svarstad,100,NO,1610233956,1,59.399,9.9698,-1.11,0.89
475,konstantinovo,76,BY,1610233957,97,54.6628,29.2699,-9.1,2.48
476,ascension,1,US,1610233958,43,30.2169,-90.9001,10.0,1.54
477,swan hill,21,AU,1610233959,20,-35.3378,143.5544,30.22,1.39
478,tabuk,90,PH,1610233960,89,17.4189,121.4443,17.62,3.13
479,kieta,49,PG,1610233961,61,-6.2167,155.6333,30.1,0.37
480,iqaluit,90,CA,1610233941,85,63.7506,-68.5145,-12.0,1.54
481,saint-leu,0,RE,1610233963,73,-21.15,55.2833,23.0,3.09
482,odienne,33,CI,1610233964,34,9.51,-7.5692,27.34,1.16
483,jacareacanga,96,BR,1610233696,89,-6.2222,-57.7528,24.79,1.02
484,flinders,0,AU,1610233966,70,-34.5833,150.8552,23.89,0.45
485,chara,96,RU,1610233967,75,56.9064,118.2631,-24.18,1.71
486,kondinskoye,86,RU,1610233969,90,59.6481,67.41,-24.39,2.76
487,sao raimundo das mangabeiras,99,BR,1610233970,82,-7.0219,-45.4811,25.35,1.97
488,bontang,44,ID,1610233971,91,0.1333,117.5,25.02,2.66
489,biltine,0,TD,1610233972,23,14.5333,20.9167,20.51,6.15
490,alta,58,NO,1610233949,67,69.9689,23.2717,-7.78,7.2
491,beaverlodge,75,CA,1610233975,73,55.2166,-119.4361,-6.0,2.57
492,maceio,0,BR,1610233976,83,-9.6658,-35.7353,25.0,3.6
493,ibra,0,OM,1610233977,54,22.6906,58.5334,8.29,3.15
494,surt,0,LY,1610233818,33,31.2089,16.5887,22.17,7.16
495,bloomington,90,US,1610233979,86,44.8408,-93.2983,-7.0,3.6
496,paita,40,PE,1610233980,73,-5.0892,-81.1144,25.0,6.69
497,talcahuano,0,CL,1610233943,55,-36.7167,-73.1167,18.0,3.6
498,mecca,23,SA,1610233741,61,21.4267,39.8261,23.45,0.89
499,tieli,61,CN,1610233983,86,46.95,128.05,-30.42,1.44
500,praya,40,CV,1610233984,64,14.9215,-23.5087,22.0,10.8
501,oudtshoorn,0,ZA,1610233985,88,-33.5907,22.2014,17.0,3.09
502,burns lake,100,CA,1610233986,86,54.2331,-125.7533,-7.0,1.54
503,gat,0,IL,1610233987,67,31.61,34.7642,15.0,2.06
504,puntarenas,75,CR,1610233988,73,9.9763,-84.8384,23.0,4.63
505,kangaatsiaq,100,GL,1610233989,88,68.3065,-53.4641,-9.06,4.89
506,nuuk,90,GL,1610233864,64,64.1835,-51.7216,-2.0,1.54
507,pacifica,75,US,1610233991,58,37.6138,-122.4869,15.0,6.17
508,bandar-e anzali,71,IR,1610233840,47,37.4727,49.4622,10.36,3.19
509,ust-uda,100,RU,1610233994,86,54.1742,103.0304,-22.26,1.16
510,aloleng,15,PH,1610233995,68,16.1307,119.7824,23.21,5.19
511,sujangarh,1,IN,1610233996,41,27.7011,74.4649,12.93,2.8
512,black river,40,JM,1610233997,78,18.0264,-77.8487,27.0,5.66
513,zhengjiatun,97,CN,1610233998,88,43.5064,123.5064,-20.61,1.34
514,imeni poliny osipenko,99,RU,1610234000,86,52.4201,136.4853,-29.12,2.57
515,madang,98,PG,1610234001,69,-5.2246,145.7966,28.38,1.85
516,teahupoo,75,PF,1610234004,65,-17.8333,-149.2667,30.0,5.14
517,dabola,76,GN,1610234006,22,10.75,-11.1167,24.9,0.72
518,boyolangu,94,ID,1610234007,85,-8.1181,111.8935,24.6,0.35
519,irituia,96,BR,1610234008,94,-1.7711,-47.4381,23.69,1.53
520,saint anthony,90,US,1610234009,86,45.0205,-93.218,-7.0,2.06
521,vazante,100,BR,1610234010,80,-17.9869,-46.9078,24.08,1.37
522,saldanha,0,ZA,1610234011,77,-33.0117,17.9442,19.0,2.06
523,rivadavia,0,AR,1610234012,23,-33.1905,-68.4608,30.0,5.14
524,aquiraz,0,BR,1610234013,78,-3.9014,-38.3911,27.0,3.6
525,la paz,75,BO,1610233932,76,-16.5,-68.15,10.0,2.06
526,miechow,90,PL,1610234015,93,50.3565,20.0279,0.56,1.54
527,santiago del estero,63,AR,1610234016,52,-27.7951,-64.2615,30.55,2.47
528,manono,100,CD,1610233981,95,-7.3,27.4167,20.05,0.3
529,hobyo,0,SO,1610234018,70,5.3505,48.5268,23.73,9.7
530,sobolevo,99,RU,1610234019,97,54.4299,31.8996,-9.57,2.76
531,loubomo,100,CG,1610234020,96,-4.1997,12.6739,21.96,1.9
532,bathsheba,40,BB,1610234021,78,13.2167,-59.5167,26.0,9.26
533,cheremkhovo,98,RU,1610234022,89,53.1561,103.0675,-23.07,0.92
534,parainen,90,FI,1610234023,93,60.3067,22.301,-2.22,3.09
535,ende,53,ID,1610234024,74,-8.8432,121.6623,27.33,0.85
536,bandrele,0,YT,1610234025,78,-12.9067,45.1914,25.0,2.57
537,puerto madryn,22,AR,1610234026,15,-42.7692,-65.0385,27.8,14.5
538,luganville,70,VU,1610234027,65,-15.5333,167.1667,30.45,1.82
539,arica,0,CL,1610233853,68,-18.475,-70.3042,22.0,3.6
540,callaway,0,US,1610234029,71,30.153,-85.5699,6.11,0.45
541,tibacuy,28,CO,1610234030,69,4.3511,-72.4564,26.63,1.75
542,eureka,53,US,1610234031,57,40.8021,-124.1637,16.11,0.89
543,kamenka,94,RU,1610234032,98,51.3223,42.7678,-3.12,5.42
544,mastic beach,90,US,1610234033,51,40.7668,-72.8521,1.11,4.12
545,pahrump,0,US,1610234034,23,36.2083,-115.9839,13.89,4.92
546,erenhot,6,CN,1610234035,88,43.6475,111.9767,-19.66,3.49
547,nkowakowa,0,ZA,1610234036,77,-23.8878,30.2871,20.0,5.14
548,yar-sale,97,RU,1610234037,89,66.8333,70.8333,-25.83,5.48
549,warrnambool,1,AU,1610234038,66,-38.3833,142.4833,21.67,2.24
550,abu kamal,28,SY,1610234040,45,34.4506,40.9171,8.66,1.79
551,carutapera,82,BR,1610234041,80,-1.195,-46.02,26.35,3.66
552,san miguel,20,SV,1610234042,51,13.4833,-88.1833,31.0,4.12
553,avera,90,US,1610234043,75,33.194,-82.5271,7.0,3.09
554,ozernovskiy,100,RU,1610234044,84,51.5,156.5167,-5.35,6.49
555,borogontsy,100,RU,1610234045,82,62.6683,131.1683,-37.57,1.26
556,westport,90,US,1610234047,47,41.1415,-73.3579,1.67,3.09
557,hashtrud,98,IR,1610234048,74,37.4779,47.0508,-7.74,0.5
558,asau,100,RO,1610234050,100,46.4333,26.4,-1.0,0.51
559,kralovice,90,CZ,1610234050,100,49.9819,13.4875,0.0,1.03
560,lasa,0,IT,1610234052,67,46.6166,10.7002,-5.56,3.09
561,taoudenni,71,ML,1610234053,40,22.6783,-3.9836,21.76,6.02
562,newtownards,75,GB,1610234054,93,54.5924,-5.6909,3.33,5.66
563,skeldon,98,GY,1610234055,92,5.8833,-57.1333,24.48,3.66
564,lisakovsk,100,KZ,1610234056,96,52.5369,62.4936,-9.59,4.37
565,siniscola,75,IT,1610234058,100,40.5719,9.6922,10.0,3.09
566,arcata,1,US,1610233807,51,40.8665,-124.0828,16.11,1.44
567,rawson,16,AR,1610234059,18,-43.3002,-65.1023,25.93,8.16
568,yemelyanovo,100,RU,1610234061,72,56.1681,92.6767,-13.0,4.0
569,dudinka,6,RU,1610234062,84,69.4058,86.1778,-31.65,4.36
570,krasnoselkup,93,RU,1610234063,90,65.7,82.4667,-24.41,3.17
571,broken hill,0,AU,1610234064,31,-31.95,141.4333,26.0,6.17
572,porto novo,20,BJ,1610233956,94,6.4965,2.6036,27.0,4.63
573,invermere,40,CA,1610234066,90,50.5167,-116.0354,-4.2,1.14
